{"type": "FeatureCollection", "features": [{"type": "Feature", "geometry": {"type": "Point", "coordinates": [-95.2879122, 32.3393918]}, "properties": {"name": "The Women's Health Center at Tyler", "phoneFormatted": "(903) 758-2610", "address": "825 Medical Drive, Tyler, TX 75701", "city": "Tyler", "website": "www.wellnesspointe.org", "zipcode": "75701", "hours": "Monday - Friday 8:00am - 5:00pm", "details": []}}, {"type": "Feature", "geometry": {"type": "Point", "coordinates": [-94.7304329, 32.5027604]}, "properties": {"name": "The Womens Health Center at Longview", "phoneFormatted": "(903) 315-2700", "address": "705 E. Marshall Ave. St. 3000, Longview, Texas 75601", "city": "Longview", "website": "https://zeidwhc.com/", "zipcode": "75601", "hours": "Monday-Friday 8:00am-5:00pm", "details": []}}, {"type": "Feature", "geometry": {"type": "Point", "coordinates": [-98.1751292, 26.3091714]}, "properties": {"name": "UTRGV - Unimovil Mobile Clinic", "phoneFormatted": "(956) 296-1711", "address": "1210 W. Schunior St., Edinburg, TX 78541", "city": "Edinburg", "website": "https://uthealthrgv.org/locations/", "zipcode": "78541", "hours": "Monday - Friday 8:00am - 5:00pm", "details": ["Call 1-833-UTRGVMD for all locations"]}}, {"type": "Feature", "geometry": {"type": "Point", "coordinates": [-98.1547248, 26.2979834]}, "properties": {"name": "Access Esperanza - Edinburg Clinic", "phoneFormatted": "(956) 383-5082", "address": "302 S. Veterans Blvd., Edinburg, TX 78539", "city": "Edinburg", "website": "https://accessclinics.org/edinburg-womens-health-clinic/", "zipcode": "78539", "hours": "Monday 8:00am - 6:00pm  Tuesday 10:00am -7:00pm   Wednesday - Friday  8:00am - 5:00pm  Saturday 9:00am - 1:00pm", "details": ["Saturdays are for supplies ONLY", "Call for evening hours"]}}, {"type": "Feature", "geometry": {"type": "Point", "coordinates": [-98.2085679, 26.2074632]}, "properties": {"name": "Access Esperanza - McAllen Clinic", "phoneFormatted": "(956) 686-6671", "address": "916 E. Hackberry Ave, Suite B, McAllen, TX 78501", "city": "McAllen", "website": "https://accessclinics.org/mcallen-womens-health-clinic/", "zipcode": "78501", "hours": "Monday - Wednesday 8:00am - 8:00pm Thursday - Friday 8:00am - 5:00pm  Saturday 9:00am - 1:00pm", "details": ["Saturdays are for supplies ONLY", "Next to administrative headquarters"]}}, {"type": "Feature", "geometry": {"type": "Point", "coordinates": [-98.3257625, 26.2180998]}, "properties": {"name": "Access Esperanza - Mission Health Clinic", "phoneFormatted": "(956) 585-4575", "address": "1201 Conway, Mission, TX 78572", "city": "Mission", "website": "https://accessclinics.org/mission-womens-health-clinic/", "zipcode": "78572", "hours": "Monday - Wednesday 8:00am - 6:00pm Thursday 10:00am - 7:00pm  Friday 8:00am - 1:00pm", "details": []}}, {"type": "Feature", "geometry": {"type": "Point", "coordinates": [-98.2322355, 26.2188442]}, "properties": {"name": "Access Esperanza - South Texas College Mid-Valley Campus", "phoneFormatted": "(956) 973-2655", "address": "400 North Border Avenue, McAllen, TX 78501", "city": "McAllen", "website": "https://accessclinics.org/", "zipcode": "78501", "hours": "Tuesday 8:30am - 4:00pm during Spring   Fall semesters", "details": []}}, {"type": "Feature", "geometry": {"type": "Point", "coordinates": [-97.9754853, 26.1509918]}, "properties": {"name": "Access Esperanza - Weslaco Clinic", "phoneFormatted": "(956) 968-5039", "address": "901 S. James St., Weslaco, TX 78596", "city": "Weslaco", "website": "https://accessclinics.org/weslaco-womens-health-clinic/", "zipcode": "78596", "hours": "Monday 8:00am - 6:00pm Tuesday 10:00am - 7:00pm Wednesday 8:00am - 6:00pm Thursday - Friday 8:00am - 5:00pm", "details": []}}, {"type": "Feature", "geometry": {"type": "Point", "coordinates": [-95.2749757, 29.993622]}, "properties": {"name": "Avenue 360 - Humble", "phoneFormatted": "(281) 570-2525", "address": "9816 Memorial Blvd.\r Suite 120, Houston, TX 77338", "city": "Houston", "website": "https://avenue360.org/", "zipcode": "77338", "hours": "Monday - Friday 8:00am - 5:00pm", "details": []}}, {"type": "Feature", "geometry": {"type": "Point", "coordinates": [-95.4373688, 29.8013099]}, "properties": {"name": "Avenue 360 - Main Campus", "phoneFormatted": "(713) 426-0027", "address": "2150 W. 18th St.\r Suite 300, Houston, TX 77008", "city": "Houston", "website": "https://avenue360.org/houston-clinic-locations/houston-heights-main-campus/", "zipcode": "77008", "hours": "Monday - Thursday 8:00am - 6:00pm Friday 8:00am - 5:00pm", "details": []}}, {"type": "Feature", "geometry": {"type": "Point", "coordinates": [-95.54677290000001, 29.7800418]}, "properties": {"name": "Avenue 360 - Memorial City", "phoneFormatted": "(713) 827-8266", "address": "902 Frostwood, Suite 142, Houston, TX 77024", "city": "Houston", "website": "https://avenue360.org/locations/memorial-city/", "zipcode": "77024", "hours": "Monday - Friday 8:00am - 5:00pm", "details": []}}, {"type": "Feature", "geometry": {"type": "Point", "coordinates": [-95.3501667, 29.7028009]}, "properties": {"name": "Avenue 360 - South Central", "phoneFormatted": "(832) 962-4111", "address": "4405 Griggs Rd., Houston, TX 77021", "city": "Houston", "website": "https://avenue360.org/houston-clinic-locations/houston-south-central-clinic/", "zipcode": "77021", "hours": "Monday - Friday 8:00am - 5:00pm", "details": []}}, {"type": "Feature", "geometry": {"type": "Point", "coordinates": [-95.4947637, 29.6346275]}, "properties": {"name": "Avenue 360 - Southwest", "phoneFormatted": "713-426-0027", "address": "14095 S. Main St., Houston, TX 77035", "city": "Houston", "website": "https://avenue360.org/houston-clinic-locations/southwest-health-center/", "zipcode": "77035", "hours": "Monday - Friday 8:00am - 5:00pm", "details": []}}, {"type": "Feature", "geometry": {"type": "Point", "coordinates": [-95.45958759999999, 30.0107641]}, "properties": {"name": "Avenue 360 - Spring Cypress", "phoneFormatted": "(281) 537-8627", "address": "17010 Sugar Pine Drive, Houston, TX 77090", "city": "Houston", "website": "https://avenue360.org/locations/spring-cypress/", "zipcode": "77090", "hours": "Monday - Friday 8:00am - 5:00pm", "details": []}}, {"type": "Feature", "geometry": {"type": "Point", "coordinates": [-97.7303402, 31.1209358]}, "properties": {"name": "Bell County Public Health District Killeen Clinic", "phoneFormatted": "(254) 526-8371", "address": "309 N. 2nd St., Killeen, TX 76541", "city": "Killeen", "website": "https://www.bellcountyhealth.org/clinical/killeen.php", "zipcode": "76541", "hours": "Monday-Thursday 7:00am - 4:30pm", "details": []}}, {"type": "Feature", "geometry": {"type": "Point", "coordinates": [-97.3546731, 31.1096332]}, "properties": {"name": "Bell County Public Health District Temple Clinic", "phoneFormatted": "(254) 778-4766", "address": "820 N. 31st St., Temple, TX 76504", "city": "Temple", "website": "https://www.bellcountyhealth.org/clinical/temple.php", "zipcode": "76504", "hours": "Monday - Thursday 7:00am - 4:30pm", "details": []}}, {"type": "Feature", "geometry": {"type": "Point", "coordinates": [-98.49620929999999, 29.4740383]}, "properties": {"name": "Bexar County - Kenwood Clinic", "phoneFormatted": "(210) 358-8255", "address": "302 Dora St., San Antonio, TX 78212", "city": "San Antonio", "website": "https://www.universityhealthsystem.com/locations/kenwood-clinic", "zipcode": "78212", "hours": "Monday - Thursday 7:00am - 6:00pm Friday 9:30am - 4:00pm", "details": []}}, {"type": "Feature", "geometry": {"type": "Point", "coordinates": [-98.4160836, 29.5427889]}, "properties": {"name": "Bexar County - Naco Perrin Clinic", "phoneFormatted": "(210) 358-8255", "address": "4020 Naco Perrin Blvd., San Antonio, TX 78217", "city": "San Antonio", "website": "https://www.universityhealthsystem.com/locations/san-antonio/naco-perrin-clinic-4020-naco-perrin-san-antonio-78217", "zipcode": "78217", "hours": "Monday - Thursday 7:00am - 6:00pm Friday 9:30am - 4:00pm", "details": []}}, {"type": "Feature", "geometry": {"type": "Point", "coordinates": [-98.55463809999999, 29.4230405]}, "properties": {"name": "Bexar County - Ricardo Salinas Clinic", "phoneFormatted": "(210) 358-8255", "address": "630 S. General McMullen, San Antonio, TX 78237", "city": "San Antonio", "website": "https://www.universityhealthsystem.com/locations/san-antonio/salinas-clinic-630-s-general-mcmullen-drive-san-antonio-78237", "zipcode": "78237", "hours": "Monday - Thursday 7:00am - 6:00pm Friday 9:30am - 4:00pm", "details": []}}, {"type": "Feature", "geometry": {"type": "Point", "coordinates": [-98.50156919999999, 29.4309066]}, "properties": {"name": "Bexar County - Robert B. Green Campus", "phoneFormatted": "(210) 358-3582", "address": "903 W. Martin St., San Antonio, TX 78207", "city": "San Antonio", "website": "https://www.universityhealthsystem.com/locations/san-antonio/robert-b-green-campus-903-w-martin-san-antonio-78207", "zipcode": "78207", "hours": "Monday - Friday 8:00am - 4:00pm", "details": []}}, {"type": "Feature", "geometry": {"type": "Point", "coordinates": [-98.50156919999999, 29.4309066]}, "properties": {"name": "Bexar County - Robert B. Green Teen Clinic", "phoneFormatted": "(210) 358-8255", "address": "903 W. Martin St., 4th Floor, San Antonio, TX 78207", "city": "San Antonio", "website": "https://www.universityhealthsystem.com/locations/san-antonio/robert-b-green-campus-903-w-martin-san-antonio-78207", "zipcode": "78207", "hours": "Monday - Friday 8:00am - 4:00pm", "details": []}}, {"type": "Feature", "geometry": {"type": "Point", "coordinates": [-98.44867029999999, 29.4377902]}, "properties": {"name": "Bexar County - Robert Hilliard Center", "phoneFormatted": "(210) 644-8700", "address": "919 Locke St., San Antonio, TX 78208", "city": "San Antonio", "website": "https://www.universityhealthsystem.com/locations/san-antonio/dr-robert-l-m-hilliard-center-919-locke-street-san-antonio-78208", "zipcode": "78208", "hours": "Monday - Thursday 7:30am - 5:00pm  Friday 9:30am - 4:00pm", "details": []}}, {"type": "Feature", "geometry": {"type": "Point", "coordinates": [-98.48634799999999, 29.347299]}, "properties": {"name": "Bexar County - South Flores", "phoneFormatted": "(210) 358-8255", "address": "7902 S. Flores, San Antonio, TX 78221", "city": "San Antonio", "website": "https://www.universityhealthsystem.com/locations/san-antonio/south-flores-clinic-7902-s-flores-street-san-antonio-78221", "zipcode": "78221", "hours": "Monday - Thursday 7:00am - 6:00pm Friday 9:30am - 4:00pm", "details": []}}, {"type": "Feature", "geometry": {"type": "Point", "coordinates": [-98.53430499999999, 29.38124689999999]}, "properties": {"name": "Bexar County - Zarzamora Clinic", "phoneFormatted": "(210) 358-8255", "address": "4503 S. Zarzamora St., San Antonio, TX 78211", "city": "San Antonio", "website": "https://www.universityhealthsystem.com/locations/san-antonio/zarzamora-clinic-4503-s-zarzamora-street-san-antonio-78211", "zipcode": "78211", "hours": "Monday-Thursday 7:00am - 6:00pm Friday 9:30am - 4:00pm", "details": []}}, {"type": "Feature", "geometry": {"type": "Point", "coordinates": [-97.2143505, 26.0715152]}, "properties": {"name": "Cameron County - Father Joseph O'Brian Health Clinic", "phoneFormatted": "(956) 943-1300", "address": "142 Champion Rd, Port Isabel, TX 78578", "city": "Port Isabel", "website": "https://www.cameroncounty.us/publichealth/index.php/health-clinics/", "zipcode": "78578", "hours": "Monday - Friday 8:00am - 5:00pm", "details": []}}, {"type": "Feature", "geometry": {"type": "Point", "coordinates": [-97.7098065, 26.1989264]}, "properties": {"name": "Cameron County - Harlingen Public Health Center", "phoneFormatted": "(956) 423-3516", "address": "711 N \"L\" Street, Harlingen, TX 78550", "city": "Harlingen", "website": "https://www.cameroncounty.us/publichealth/index.php/health-clinics/", "zipcode": "78550", "hours": "Monday - Friday 8:00am - 5:00pm", "details": []}}, {"type": "Feature", "geometry": {"type": "Point", "coordinates": [-97.438558, 25.9051749]}, "properties": {"name": "Cameron County - Mary P. Lucio Health Center", "phoneFormatted": "(956) 574-8745", "address": "1204 Jose Colunga Jr, Brownsville, TX 78521", "city": "Brownsville", "website": "https://www.cameroncounty.us/publichealth/index.php/health-clinics/", "zipcode": "78521", "hours": "Monday - Friday 8:00am - 5:00pm", "details": []}}, {"type": "Feature", "geometry": {"type": "Point", "coordinates": [-97.6539633, 26.1405888]}, "properties": {"name": "Cameron County - San Benito Public Health Clinic", "phoneFormatted": "(956) 361-8244", "address": "1390 W. Expressway 83, San Benito, TX 78586", "city": "San Benito", "website": "https://www.cameroncounty.us/publichealth/index.php/health-clinics/", "zipcode": "78586", "hours": "Monday - Friday 8:00am - 5:00pm", "details": []}}, {"type": "Feature", "geometry": {"type": "Point", "coordinates": [-97.3061798, 30.1000215]}, "properties": {"name": "CHCSCT - Bastrop Community Health Center", "phoneFormatted": "(512) 321-7137", "address": "275 Jackson St., Bastrop, TX 78602", "city": "Bastrop", "website": "https://www.chcsct.com", "zipcode": "78602", "hours": "Monday   Wednesday - Friday 8:00am - 12:00pm Tuesday 8:0am - 8:00pm", "details": []}}, {"type": "Feature", "geometry": {"type": "Point", "coordinates": [-97.4544471, 29.5015949]}, "properties": {"name": "CHCSCT - Gonzales Community Health Center", "phoneFormatted": "(830) 672-6511", "address": "228 Saint George St., Gonzales, TX 78629", "city": "Gonzales", "website": "https://www.chcsct.com/", "zipcode": "78629", "hours": "Monday - Tuesday 8:00am - 8:00pm  Wednesday 8:00am - 5:00pm Friday 8:00am - 12:00pm", "details": []}}, {"type": "Feature", "geometry": {"type": "Point", "coordinates": [-97.667655, 29.8524779]}, "properties": {"name": "CHCSCT - Lockhart Family Practice Center", "phoneFormatted": "(830) 494-4001", "address": "2060 S. Colorado St., Lockhart, TX 78644", "city": "Lockhart", "website": "https://www.chcsct.com/", "zipcode": "78644", "hours": "Monday - Thursday 8:00am - 5:00pm Friday 8:00am - 12:00pm", "details": []}}, {"type": "Feature", "geometry": {"type": "Point", "coordinates": [-97.64853049999999, 29.6800022]}, "properties": {"name": "CHCSCT - Luling Community Health Center", "phoneFormatted": "(830) 875-6399", "address": "111 S. Laurel Ave., Luling, TX 78648", "city": "Luling", "website": "https://www.chcsct.com/", "zipcode": "78648", "hours": "Monday   Wednesday - Thursday 8:00am - 5:00pm  Tuesday 8:00am - 8:00pm Friday 8:00am - 12:00pm", "details": []}}, {"type": "Feature", "geometry": {"type": "Point", "coordinates": [-97.98304320000001, 29.5674054]}, "properties": {"name": "CHCSCT - Seguin Family Health Center", "phoneFormatted": "(830) 379-9797", "address": "1104 Jefferson St., Seguin, TX 78155", "city": "Seguin", "website": "https://www.chcsct.com/", "zipcode": "78155", "hours": "Monday  Wednesday    Friday 8:00am - 5:00pm   Tuesday 8:00am - 8:00pm Thursday 8:00am - 12:00pm", "details": []}}, {"type": "Feature", "geometry": {"type": "Point", "coordinates": [-96.99143319999999, 28.8325603]}, "properties": {"name": "CHCSCT - Victoria Community Health Center", "phoneFormatted": "(361) 576-2110", "address": "4206 Retama Circle, Victoria, TX 77901", "city": "Victoria", "website": "https://www.chcsct.com/", "zipcode": "77901", "hours": "Monday  Wednesday    Thursday 8:00am - 5:00pm  Tuesday 8:00am - 8:00pm Friday 8:00am - 12:00pm", "details": []}}, {"type": "Feature", "geometry": {"type": "Point", "coordinates": [-95.3617175, 29.7755516]}, "properties": {"name": "City of Houston - La Nueva Casa de Amigos", "phoneFormatted": "(832) 395-0570", "address": "1809 N. Main, Houston, TX 77009", "city": "Houston", "website": "http://www.houstontx.gov/health/HealthCenters/La_Nueva_Casa_de_Amigos_Health_Center.html", "zipcode": "77009", "hours": "Monday - Friday 9:00am - 6:00pm", "details": []}}, {"type": "Feature", "geometry": {"type": "Point", "coordinates": [-95.3406005, 29.8371786]}, "properties": {"name": "City of Houston - Northside Health Center", "phoneFormatted": "(832) 395-9100", "address": "8504 Schuller Rd., Houston, TX 77093", "city": "Houston", "website": "http://www.houstontx.gov/health/HealthCenters/Northside_Health_Center.html", "zipcode": "77093", "hours": "Monday - Friday 9:00am - 6:00pm", "details": []}}, {"type": "Feature", "geometry": {"type": "Point", "coordinates": [-95.5131559, 29.7116031]}, "properties": {"name": "City of Houston - Sharpstown Health Services", "phoneFormatted": "(832) 395-9800", "address": "6201 Bonhomme Suite 300, Houston, TX 77036", "city": "Houston", "website": "http://www.houstontx.gov/health/HealthCenters/Sharpstown_Health_Services.html", "zipcode": "77036", "hours": "Monday - Friday 9:00am - 6:00pm", "details": []}}, {"type": "Feature", "geometry": {"type": "Point", "coordinates": [-95.3565836, 29.6564666]}, "properties": {"name": "City of Houston - Sunnyside Health Center", "phoneFormatted": "(832) 395-0206", "address": "4605 Wilmington St., Houston, TX 77051", "city": "Houston", "website": "http://www.houstontx.gov/health/HealthCenters/Sunnyside_Health_Center.html", "zipcode": "77051", "hours": "Monday 9:00am - 6:00pm", "details": []}}, {"type": "Feature", "geometry": {"type": "Point", "coordinates": [-99.49045249999999, 27.5197662]}, "properties": {"name": "City of Laredo Public Health- Clinic", "phoneFormatted": "(956) 795-4903", "address": "2600 Cedar Ave., Laredo, TX 78040", "city": "Laredo", "website": "https://www.cityoflaredo.com/health/index.html", "zipcode": "78040", "hours": "Monday - Tuesday   Thursday - Friday 8:00am - 5:00pm Wednesday 8:00am - 7:00pm", "details": []}}, {"type": "Feature", "geometry": {"type": "Point", "coordinates": [-99.4778823, 27.461397]}, "properties": {"name": "City of Laredo - Santo Nino Clinic", "phoneFormatted": "(956) 795-4903", "address": "3806 S. Zapata Hwy. #300, Laredo, TX 78046", "city": "Laredo", "website": "https://www.cityoflaredo.com/health/index.html", "zipcode": "78046", "hours": "Monday - Tuesday   Thursday - Friday 8:00am - 5:00pm Wednesday 8:00am - 7:00pm", "details": []}}, {"type": "Feature", "geometry": {"type": "Point", "coordinates": [-97.0920783, 32.7088026]}, "properties": {"name": "Collins Family Planning - Arlington", "phoneFormatted": "(817) 922-8182", "address": "1115 E. Pioneer PKWY #130, Arlington, TX 76010", "city": "Arlington", "website": "http://collinsfamilyplanningclinic.org/", "zipcode": "76010", "hours": "Monday - Friday 9:00am - 5:00pm", "details": []}}, {"type": "Feature", "geometry": {"type": "Point", "coordinates": [-97.2854389, 32.6612021]}, "properties": {"name": "Collins Family Planning Clinic", "phoneFormatted": "(817) 922-8182", "address": "2900 SE Loop 820, Forth Worth, TX 76140", "city": "Fort Worth", "website": "http://collinsfamilyplanningclinic.org/", "zipcode": "76140", "hours": "Monday - Friday 9:00am - 5:00pm", "details": []}}, {"type": "Feature", "geometry": {"type": "Point", "coordinates": [-97.9810845, 29.8942825]}, "properties": {"name": "Community Action - San Marcos Community Health Services", "phoneFormatted": "(512) 392-5816", "address": "215 S. Reimer Rd., Suite 130, San Marcos, TX 78666", "city": "San Marcos", "website": "https://www.communityaction.com", "zipcode": "78666", "hours": "Monday - Thursday 8:00am -5:00pm Friday 8:00am - 12:00pm", "details": []}}, {"type": "Feature", "geometry": {"type": "Point", "coordinates": [-97.72749739999999, 30.2594978]}, "properties": {"name": "CommUnityCare East Austin", "phoneFormatted": "(512) 978-9015", "address": "211 Comal Street, Austin, TX 78702", "city": "Austin", "website": "https://communitycaretx.org/locations/east-austin.html", "zipcode": "78702", "hours": "Monday - Friday 8:00am - 5:00 pm", "details": []}}, {"type": "Feature", "geometry": {"type": "Point", "coordinates": [-97.6939013, 30.3857645]}, "properties": {"name": "CommUnityCare North Central", "phoneFormatted": "(512) 978-9015", "address": "1210 West Braker Lane, Austin, TX 78758", "city": "Austin", "website": "https://communitycaretx.org/locations/north-central.html", "zipcode": "78758", "hours": "Monday - Thursday 7:00am - 9:00pm Friday 7:00am - 6:00pm Saturday 8:00am - 12:00pm", "details": []}}, {"type": "Feature", "geometry": {"type": "Point", "coordinates": [-97.70967929999999, 30.2143153]}, "properties": {"name": "CommUnityCare Southeast Health and Wellness Center", "phoneFormatted": "(512) 978-9015", "address": "2901 Montopolis Drive, Austin, TX 78741", "city": "Austin", "website": "https://communitycaretx.org/locations/southeasthealthandwellness.html", "zipcode": "78741", "hours": "Monday - Friday 7:20am - 6:00pm Saturday by appointment 8:00am - 4:30pm", "details": []}}, {"type": "Feature", "geometry": {"type": "Point", "coordinates": [-101.896173, 35.2068899]}, "properties": {"name": "Haven Health Clinic", "phoneFormatted": "(806) 322-3599", "address": "#1 Medical Drive, Amarillo, TX 79106", "city": "Amarillo", "website": "https://www.havenhealthamarillo.com", "zipcode": "79106", "hours": "Monday - Thursday 8:00am - 5:00pm Friday 8:00am - 12:00pm", "details": []}}, {"type": "Feature", "geometry": {"type": "Point", "coordinates": [-97.0897521, 33.2168617]}, "properties": {"name": "Health Services of North Texas Clinic", "phoneFormatted": "(940) 381-2313", "address": "306 N. Loop 288, Suite 200, Denton, TX 76209", "city": "Denton", "website": "https://healthservicesntx.org/", "zipcode": "76209", "hours": "Monday - Friday 8:00am - 5:00pm", "details": []}}, {"type": "Feature", "geometry": {"type": "Point", "coordinates": [-94.0013578, 30.9216065]}, "properties": {"name": "Jasper Newton County Public Health District - Jasper Site", "phoneFormatted": "(409) 384-6829", "address": "139 West Lamar Street, Jasper, TX 75951", "city": "Jasper", "website": "http://www.jaspernewton.org/family-planning/", "zipcode": "75951", "hours": "Monday - Thursday 7:30am - 5:00pm", "details": []}}, {"type": "Feature", "geometry": {"type": "Point", "coordinates": [-93.75958469999999, 30.8493828]}, "properties": {"name": "Jasper Newton County Public Health District - Newton Site", "phoneFormatted": "(409) 379-5291", "address": "210 High Street, Newton, TX 75966", "city": "Newton", "website": "http://www.jaspernewton.org/family-planning/", "zipcode": "75966", "hours": "Wednesday 7:30am - 5:00pm", "details": []}}, {"type": "Feature", "geometry": {"type": "Point", "coordinates": [-95.4972008, 29.7111976]}, "properties": {"name": "Legacy - Baker-Ripley Clinic", "phoneFormatted": "(713) 351-7350", "address": "6500 Rookin St., Bldg. B, #200, Houston, TX 77074", "city": "Houston", "website": "https://www.legacycommunityhealth.org/contact-us/", "zipcode": "77074", "hours": "Monday - Friday 8:00am - 5:00pm", "details": []}}, {"type": "Feature", "geometry": {"type": "Point", "coordinates": [-95.60162679999999, 29.6767825]}, "properties": {"name": "Legacy - Bissonnet Clinic", "phoneFormatted": "(281) 498-6100", "address": "12667 Bissonnet St., Houston, TX 77099", "city": "Houston", "website": "https://www.legacycommunityhealth.org/contact-us/", "zipcode": "77099", "hours": "Monday - Thursday 7:30am - 7:30pm Friday 8:00am - 5:00pm Saturday 9:00am - 1:00pm", "details": []}}, {"type": "Feature", "geometry": {"type": "Point", "coordinates": [-94.1294277, 30.0850398]}, "properties": {"name": "Legacy - Central Beaumont Clinic", "phoneFormatted": "(409) 242-2577", "address": "450 N. 11th St., Beaumont, TX 77702", "city": "Beaumont", "website": "https://www.legacycommunityhealth.org/contact-us/", "zipcode": "77702", "hours": "Monday - Friday 8:00 am - 5:00 pm", "details": []}}, {"type": "Feature", "geometry": {"type": "Point", "coordinates": [-94.1261502, 30.0698245]}, "properties": {"name": "Legacy - Central Stagg", "phoneFormatted": "(409) 833-8850", "address": "3455 Stagg Dr., Beaumont, TX 77701", "city": "Beaumont", "website": "https://www.legacycommunityhealth.org/contact-us/", "zipcode": "77701", "hours": "Monday - Friday 8:00am - 5:00pm Saturday 8:00am - 4:00pm", "details": []}}, {"type": "Feature", "geometry": {"type": "Point", "coordinates": [-95.1246608, 29.6799918]}, "properties": {"name": "Legacy - Deer Park Clinic", "phoneFormatted": "(281) 628-2040", "address": "3430 Center St., Deer Park, TX 77536", "city": "Deer Park", "website": "https://www.legacycommunityhealth.org/contact-us/", "zipcode": "77536", "hours": "Monday - Friday 8:00am - 5:00pm", "details": []}}, {"type": "Feature", "geometry": {"type": "Point", "coordinates": [-95.3315523, 29.7762137]}, "properties": {"name": "Legacy - Fifth Ward Lyons Clinic", "phoneFormatted": "(832) 548-5400", "address": "3811 Lyons Ave., Houston, TX 77020", "city": "Houston", "website": "https://www.legacycommunityhealth.org/contact-us/", "zipcode": "77020", "hours": "Monday - Friday 8:00am - 5:30pm Saturday 8:00am - 4:00pm", "details": []}}, {"type": "Feature", "geometry": {"type": "Point", "coordinates": [-95.2594833, 29.6683897]}, "properties": {"name": "Legacy - KIPP Climb", "phoneFormatted": "(832) 230-0578", "address": "8805 Ferndale, Houston, TX 77017", "city": "Houston", "website": "https://www.legacycommunityhealth.org/contact-us/", "zipcode": "77017", "hours": "Monday - Thursday 7:00am - 4:15pm  Friday 7:00am - 3:00pm", "details": []}}, {"type": "Feature", "geometry": {"type": "Point", "coordinates": [-95.5019875, 29.7059163]}, "properties": {"name": "Legacy - KIPP Connect", "phoneFormatted": "(281) 879-3023", "address": "6700 Bellaire Blvd., Houston, TX 77074", "city": "Houston", "website": "https://www.legacycommunityhealth.org/contact-us/", "zipcode": "77074", "hours": "Monday - Thursday 7:00am - 4:15pm  Friday 7:00am - 3:00pm", "details": []}}, {"type": "Feature", "geometry": {"type": "Point", "coordinates": [-95.32286189999999, 29.7266083]}, "properties": {"name": "Legacy - KIPP East End", "phoneFormatted": "(832) 548-5317", "address": "5402 Lawndale St., Houston, TX 77023", "city": "Houston", "website": "https://www.legacycommunityhealth.org/contact-us/", "zipcode": "77023", "hours": "Monday - Thursday 7:00am - 4:15pm  Friday 7:00am - 3:00pm", "details": []}}, {"type": "Feature", "geometry": {"type": "Point", "coordinates": [-95.26126130000002, 29.851443]}, "properties": {"name": "Legacy - KIPP Legacy Preparatory School", "phoneFormatted": "832-230-0567", "address": "9606 Mesa Dr., Houston, TX 77078", "city": "Houston", "website": "https://www.legacycommunityhealth.org/contact-us/", "zipcode": "77078", "hours": "Monday - Thursday 7:00am - 4:15pm Friday 7:00am - 3:00pm", "details": []}}, {"type": "Feature", "geometry": {"type": "Point", "coordinates": [-95.3694197, 29.8438537]}, "properties": {"name": "Legacy - KIPP North Campus", "phoneFormatted": "832-230-0567", "address": "500 Tidwell, Houston, TX 77022", "city": "Houston", "website": "https://www.legacycommunityhealth.org/contact-us/", "zipcode": "77022", "hours": "Monday - Thursday 7:00am - 4:15pm Friday 7:00am - 3:00pm", "details": []}}, {"type": "Feature", "geometry": {"type": "Point", "coordinates": [-95.5122756, 29.7249906]}, "properties": {"name": "Legacy - KIPP Sharp", "phoneFormatted": "(281) 879-3000", "address": "8430 Westglen Dr., Houston, TX 77063", "city": "Houston", "website": "https://www.legacycommunityhealth.org/contact-us/", "zipcode": "77063", "hours": "Monday - Thursday 7:00am - 4:15pm Friday 7:00am - 3:00pm", "details": []}}, {"type": "Feature", "geometry": {"type": "Point", "coordinates": [-95.51260769999999, 29.722814]}, "properties": {"name": "Legacy - KIPP Sharpstown", "phoneFormatted": "(281) 879-3005", "address": "8440 Westpark Dr., Houston, TX 77063", "city": "Houston", "website": "https://www.legacycommunityhealth.org/contact-us/", "zipcode": "77063", "hours": "Monday - Thursday 7:00am - 4:15pm  Friday 7:00am - 3:00pm", "details": []}}, {"type": "Feature", "geometry": {"type": "Point", "coordinates": [-95.56529669999999, 29.66896059999999]}, "properties": {"name": "Legacy - KIPP Southwest", "phoneFormatted": "(832) 548-5317", "address": "10711 KIPP Way, Houston, TX 77099", "city": "Houston", "website": "https://www.legacycommunityhealth.org/contact-us/", "zipcode": "77099", "hours": "Monday - Thursday 7:00am - 4:15pm  Friday 7:00am - 3:00pm", "details": []}}, {"type": "Feature", "geometry": {"type": "Point", "coordinates": [-95.3705236, 29.6380746]}, "properties": {"name": "Legacy - KIPP Sunnyside", "phoneFormatted": "(832) 548-5317", "address": "11000 Scott St., Houston, TX 77047", "city": "Houston", "website": "https://www.legacycommunityhealth.org/contact-us/", "zipcode": "77047", "hours": "Monday - Thursday 7:00am - 4:15pm  Friday 7:00am - 3:00pm", "details": []}}, {"type": "Feature", "geometry": {"type": "Point", "coordinates": [-95.3359763, 29.7010822]}, "properties": {"name": "Legacy - KIPP Third Ward Campus", "phoneFormatted": "(281) 879-3063", "address": "5400 MLK Blvd., Houston, TX 77021", "city": "Houston", "website": "https://www.legacycommunityhealth.org/contact-us/", "zipcode": "77021", "hours": "Monday - Thursday 7:00am - 4:15pm Friday 7:00am - 3:00pm", "details": []}}, {"type": "Feature", "geometry": {"type": "Point", "coordinates": [-95.64620579999999, 29.6863427]}, "properties": {"name": "Legacy - KIPP West Unity", "phoneFormatted": "(832) 230-0572", "address": "8500 S. Texas 6, Houston, TX 77083", "city": "Houston", "website": "https://www.legacycommunityhealth.org/contact-us/", "zipcode": "77083", "hours": "Monday - Thursday 7:00am - 4:15pm Friday 7:00am - 3:00pm", "details": []}}, {"type": "Feature", "geometry": {"type": "Point", "coordinates": [-95.47475209999999, 29.7098313]}, "properties": {"name": "Legacy - Mapleridge Clinic", "phoneFormatted": "(713) 779-7200", "address": "6550 Mapleridge #106, Houston, TX 77081", "city": "Houston", "website": "https://www.legacycommunityhealth.org/contact-us/", "zipcode": "77081", "hours": "Monday - Friday 8:00am - 5:00pm", "details": []}}, {"type": "Feature", "geometry": {"type": "Point", "coordinates": [-95.3846775, 29.7365169]}, "properties": {"name": "Legacy - Montrose Center", "phoneFormatted": "(713) 366-7444", "address": "401 Branard St., Houston, TX 77006", "city": "Houston", "website": "https://www.legacycommunityhealth.org/contact-us/", "zipcode": "77006", "hours": "Monday - Friday 8:00am - 5:00pm", "details": []}}, {"type": "Feature", "geometry": {"type": "Point", "coordinates": [-95.39403689999999, 29.7450095]}, "properties": {"name": "Legacy - Montrose Clinic", "phoneFormatted": "(832) 548-5100", "address": "1415 California St., Houston, TX 77006", "city": "Houston", "website": "https://www.legacycommunityhealth.org/contact-us/", "zipcode": "77006", "hours": "Monday - Friday 8:00am - 8:00pm Sat 8:00 am - 4:00 pm", "details": []}}, {"type": "Feature", "geometry": {"type": "Point", "coordinates": [-95.3938324, 29.8480444]}, "properties": {"name": "Legacy - Northline Clinic", "phoneFormatted": "(281) 628-2034", "address": "5598-A1 North Freeway,Northtown Plaza, Houston, TX 77076", "city": "Houston", "website": "https://www.legacycommunityhealth.org/contact-us/", "zipcode": "77076", "hours": "Monday - Friday 8:00am - 5:00pm", "details": []}}, {"type": "Feature", "geometry": {"type": "Point", "coordinates": [-94.9800503, 29.7682941]}, "properties": {"name": "Legacy - San Jacinto Clinic", "phoneFormatted": "(281) 420-8400", "address": "4301 Garth Rd. #400, Baytown, TX 77521", "city": "Baytown", "website": "https://www.legacycommunityhealth.org/contact-us/", "zipcode": "77521", "hours": "Monday - Friday 8:00am - 5:00pm Sat 8:00am - 4:00pm", "details": []}}, {"type": "Feature", "geometry": {"type": "Point", "coordinates": [-95.3167038, 29.7261181]}, "properties": {"name": "Legacy - Santa Clara Clinic", "phoneFormatted": "(713) 921-0075", "address": "5616 Lawndale St., Houston, TX 77023", "city": "Houston", "website": "https://www.legacycommunityhealth.org/contact-us/", "zipcode": "77023", "hours": "Monday - Friday 8:00am - 5:00pm Saturday 8:00am - 12:00pm", "details": []}}, {"type": "Feature", "geometry": {"type": "Point", "coordinates": [-95.4964535, 29.7073599]}, "properties": {"name": "Legacy - Sharpstown Rookin", "phoneFormatted": "(713) 666-6700", "address": "6677 Rookin St., Houston, TX 77074", "city": "Houston", "website": "https://www.legacycommunityhealth.org/contact-us/", "zipcode": "77074", "hours": "Monday - Friday 8:00am - 5:00pm", "details": []}}, {"type": "Feature", "geometry": {"type": "Point", "coordinates": [-95.49560609999999, 29.7103852]}, "properties": {"name": "Legacy - Southwest Clinic", "phoneFormatted": "(823) 548-5300", "address": "6441 High Star Dr., Houston, TX 77074", "city": "Houston", "website": "https://www.legacycommunityhealth.org/contact-us/", "zipcode": "77074", "hours": "Sunday - Saturday 8:00am - 8:00pm", "details": []}}, {"type": "Feature", "geometry": {"type": "Point", "coordinates": [-95.5342404, 29.6571622]}, "properties": {"name": "Legacy - YES Prep Brays Oaks", "phoneFormatted": "(713) 967-8400", "address": "9000 W Bellfort St., Houston, TX 77031", "city": "Houston", "website": "https://www.legacycommunityhealth.org/contact-us/", "zipcode": "77031", "hours": "Monday - Thursday 7:00am - 4:15pm Friday 7:00am - 3:00pm", "details": []}}, {"type": "Feature", "geometry": {"type": "Point", "coordinates": [-95.2748144, 29.7160632]}, "properties": {"name": "Legacy - YES Prep East End", "phoneFormatted": "(832) 548-5317", "address": "8329 Lawndale St., Houston, TX 77012", "city": "Houston", "website": "https://www.legacycommunityhealth.org/contact-us/", "zipcode": "77012", "hours": "Monday - Thursday 7:00am - 4:15pm Friday 7:00am - 3:00pm", "details": []}}, {"type": "Feature", "geometry": {"type": "Point", "coordinates": [-95.3300621, 29.7740716]}, "properties": {"name": "Legacy - YES Prep Fifth Ward", "phoneFormatted": "(713) 924-0600", "address": "1305 Benson St., Houston, TX 77020", "city": "Houston", "website": "https://www.legacycommunityhealth.org/contact-us/", "zipcode": "77020", "hours": "Monday - Thursday 7:00am - 4:15pm Friday 7:00am - 3:00pm", "details": []}}, {"type": "Feature", "geometry": {"type": "Point", "coordinates": [-95.49818289999999, 29.7068125]}, "properties": {"name": "Legacy - YES Prep Gulfton", "phoneFormatted": "(832) 548-5317", "address": "6565 De Moss Dr., Houston, TX 77041", "city": "Houston", "website": "https://www.legacycommunityhealth.org/contact-us/", "zipcode": "77041", "hours": "Monday - Thursday 7:00am - 4:15pm Friday 7:00am - 3:00pm", "details": []}}, {"type": "Feature", "geometry": {"type": "Point", "coordinates": [-95.29173379999999, 29.8984568]}, "properties": {"name": "Legacy - YES Prep North Forest", "phoneFormatted": "(832) 548-5317", "address": "6602 Winfield Rd., Houston, TX 77050", "city": "Houston", "website": "https://www.legacycommunityhealth.org/contact-us/", "zipcode": "77050", "hours": "Monday - Thursday 7:00am - 4:15pm Friday 7:00am - 3:00pm", "details": []}}, {"type": "Feature", "geometry": {"type": "Point", "coordinates": [-95.3362418, 29.6884257]}, "properties": {"name": "Legacy - YES Prep Southside", "phoneFormatted": "(713) 924-5500", "address": "5515 South Loop E., Houston, TX 77003", "city": "Houston", "website": "https://www.legacycommunityhealth.org/contact-us/", "zipcode": "77003", "hours": "Monday - Thursday 7:00am - 4:15pm Friday 7:00am - 3:00pm", "details": []}}, {"type": "Feature", "geometry": {"type": "Point", "coordinates": [-95.4435894, 29.6053083]}, "properties": {"name": "Legacy - YES Prep Southwest", "phoneFormatted": "(713) 967-9200", "address": "4411 Anderson Rd., Houston, TX 77053", "city": "Houston", "website": "https://www.legacycommunityhealth.org/contact-us/", "zipcode": "77053", "hours": "Monday - Thursday 7:00am - 4:15pm Friday 7:00am - 3:00pm", "details": []}}, {"type": "Feature", "geometry": {"type": "Point", "coordinates": [-95.471744, 29.8508591]}, "properties": {"name": "Legacy - YES Prep White Oak", "phoneFormatted": "(713) 924-5200", "address": "5620 W. Tidwell Rd., Houston, TX 77091", "city": "Houston", "website": "https://www.legacycommunityhealth.org/contact-us/", "zipcode": "77091", "hours": "Monday - Thursday 7:00am - 4:15pm Friday 7:00am - 3:00pm", "details": []}}, {"type": "Feature", "geometry": {"type": "Point", "coordinates": [-97.1194895, 31.967535]}, "properties": {"name": "Midway Family Planning Clinic", "phoneFormatted": "(325) 646-8429", "address": "1500 Terrace #35, Brownwood, Texas 76801", "city": "Brownwood", "website": "https://opa-fpclinicdb.hhs.gov/site/midway-family-planning-clinic", "zipcode": "76801", "hours": "Monday 9:00am - 12:00pm   2:00pm - 6:00pm Tuesday 9:00 - 12:00 pm   2:00pm - 5:00pm  Wednesday 1:00pm - 5:00pm", "details": []}}, {"type": "Feature", "geometry": {"type": "Point", "coordinates": [-96.87104389999999, 32.7646191]}, "properties": {"name": "Parkland - Deharo Saldivar Women's Health Center", "phoneFormatted": "(214) 266-0580", "address": "1400 N. Westmoreland Road, Dallas, TX 75211", "city": "Dallas", "website": "https://www.parklandhospital.com/locations/deharosaldivar-health-center-2", "zipcode": "75211", "hours": "Monday 7:30am - 6:00pm Wednesday - Friday 7:30am - 6:00pm", "details": []}}, {"type": "Feature", "geometry": {"type": "Point", "coordinates": [-97.016005, 32.7374505]}, "properties": {"name": "Parkland - E. Carlyle Smith Jr. Women\u2019s Health Center at Grand Prairie", "phoneFormatted": "(214) 266-3500", "address": "801 Conover Dr., Grand Prairie, TX 75051", "city": "Grand Prairie", "website": "https://www.parklandhospital.com/locations/e-carlyle-smith-jr-health-center-3", "zipcode": "75051", "hours": "Monday - Friday  7:30am - 4:00pm", "details": []}}, {"type": "Feature", "geometry": {"type": "Point", "coordinates": [-96.6281147, 32.9059157]}, "properties": {"name": "Parkland - Garland Women's Health Center", "phoneFormatted": "(214) 266-0780", "address": "802 Hopkins, 2nd Floor, Garland, TX 75040", "city": "Garland", "website": "https://www.parklandhospital.com/locations/garland-health-center-6", "zipcode": "75040", "hours": "Tuesday - Thursday 7:00am - 6:00pm  Friday 8:00am - 5:00pm", "details": []}}, {"type": "Feature", "geometry": {"type": "Point", "coordinates": [-96.74123879999999, 32.7668522]}, "properties": {"name": "Parkland - Hatcher Station Women\u2019s Health Center", "phoneFormatted": "(214) 266-1200", "address": "4600 Scyene Road, Dallas, TX 75210", "city": "Dallas", "website": "https://www.parklandhospital.com/locations/hatcher-station-health-center-160", "zipcode": "75210", "hours": "Monday - Thursday 7:30am - 6:00pm", "details": []}}, {"type": "Feature", "geometry": {"type": "Point", "coordinates": [-96.9431388, 32.8336307]}, "properties": {"name": "Parkland - Irving Women's Health Center", "phoneFormatted": "(214) 266-3200", "address": "1800 N. Britain Rd., Irving, TX 75061", "city": "Irving", "website": "https://www.parklandhospital.com/locations/irving-health-center-7", "zipcode": "75061", "hours": "Monday - Tuesday   Thursday - Friday 7:30am - 6:00pm", "details": []}}, {"type": "Feature", "geometry": {"type": "Point", "coordinates": [-96.85871759999999, 32.7866068]}, "properties": {"name": "Parkland - Lakewest Women's Health Center", "phoneFormatted": "(214) 266-0900", "address": "3737 Goldman St., Dallas, TX 75212", "city": "Dallas", "website": "https://www.parklandhospital.com/locations/lake-west-womens-health-center-23", "zipcode": "75212", "hours": "Monday - Tuesday   Thursday - Friday 7:30am - 6:00pm", "details": []}}, {"type": "Feature", "geometry": {"type": "Point", "coordinates": [-96.84565289999999, 32.8224209]}, "properties": {"name": "Parkland - Maple Women's Health Center", "phoneFormatted": "(214) 266-0130", "address": "6300 Harry Hines Blvd, Suite 600, Dallas, TX 75235", "city": "Dallas", "website": "https://www.parklandhospital.com/locations/maple-womens-health-center-24", "zipcode": "75235", "hours": "Monday - Friday 7:30am - 6:00pm", "details": []}}, {"type": "Feature", "geometry": {"type": "Point", "coordinates": [-96.84355889999999, 32.6920082]}, "properties": {"name": "Parkland - Oak West Women's Health Center", "phoneFormatted": "(214) 266-1400", "address": "4201 Brook Spring Drive, Dallas, TX 75224", "city": "Dallas", "website": "https://www.parklandhospital.com/locations/oak-west-health-center-8", "zipcode": "75224", "hours": "Monday - Wednesday   Friday 7:30am - 6:00pm", "details": []}}, {"type": "Feature", "geometry": {"type": "Point", "coordinates": [-96.66255679999999, 32.7180157]}, "properties": {"name": "Parkland - Southeast Dallas Women's Health Center", "phoneFormatted": "(214) 266-1500", "address": "9202 Elam Road, Dallas, TX 75217", "city": "Dallas", "website": "https://www.parklandhospital.com/locations/southeast-dallas-health-center-9", "zipcode": "75217", "hours": "Monday - Thursday 7:30am - 6:00pm", "details": []}}, {"type": "Feature", "geometry": {"type": "Point", "coordinates": [-96.83567629999999, 32.8128222]}, "properties": {"name": "Parkland - WISH Tubal Clinic", "phoneFormatted": "(469) 419-1341", "address": "5200 Harry Hines Blvd, Dallas, TX 75235", "city": "Dallas", "website": "https://www.parklandhospital.com/locations/gynecology-clinic-36", "zipcode": "75235", "hours": "Monday - Friday 7:30am - 5:00pm", "details": []}}, {"type": "Feature", "geometry": {"type": "Point", "coordinates": [-106.5945946, 31.9134026]}, "properties": {"name": "Project Vida - Canutillo Health Center", "phoneFormatted": "(915) 465-1191", "address": "7000 5th St, Canutillo, TX 79835", "city": "Canutillo", "website": "https://www.pvida.net/", "zipcode": "79835", "hours": "Monday 9:00am - 12:00pm   1:00pm - 4:00pm", "details": []}}, {"type": "Feature", "geometry": {"type": "Point", "coordinates": [-105.2035063, 31.9380077]}, "properties": {"name": "Project Vida - Dell City", "phoneFormatted": "(915) 465-1191", "address": "104 S. Dodson St., Dell City, TX 79837", "city": "Dell City", "website": "https://www.pvida.net/", "zipcode": "79837", "hours": "Last Monday of month 8:00am - 12:00pm   1:00pm - 5:00pm", "details": []}}, {"type": "Feature", "geometry": {"type": "Point", "coordinates": [-105.8529981, 31.2914375]}, "properties": {"name": "Project Vida - Ft. Hancock Clinic", "phoneFormatted": "(915) 465-1191", "address": "561 S. Knox, Fort Hancock, TX 79839", "city": "Fort Hancock", "website": "https://www.pvida.net/", "zipcode": "79839", "hours": "Monday - Friday 8:00am - 5:00pm", "details": []}}, {"type": "Feature", "geometry": {"type": "Point", "coordinates": [-106.452247, 31.785891]}, "properties": {"name": "Project Vida - Hueco Clinic", "phoneFormatted": "(915) 465-1191", "address": "3501 Hueco Ave., El Paso, TX 79903", "city": "El Paso", "website": "https://www.pvida.net/", "zipcode": "79903", "hours": "Tuesday   Thursday 8:00am - 3:30pm", "details": []}}, {"type": "Feature", "geometry": {"type": "Point", "coordinates": [-106.1632685, 31.7143183]}, "properties": {"name": "Project Vida - La Clinica Guadalupana", "phoneFormatted": "(915) 465-1191", "address": "901 Ascension Rd., El Paso, Texas 79928", "city": "El Paso", "website": "https://www.pvida.net/", "zipcode": "79928", "hours": "Monday - Friday 8:00am - 5:00pm", "details": []}}, {"type": "Feature", "geometry": {"type": "Point", "coordinates": [-106.160938, 31.7975735]}, "properties": {"name": "Project Vida - Montana Vista Clinic", "phoneFormatted": "(915) 465-1191", "address": "14900 Greg, El Paso, TX 79938", "city": "El Paso", "website": "https://www.pvida.net/", "zipcode": "79938", "hours": "Monday - Friday 8:00am - 5:00pm", "details": []}}, {"type": "Feature", "geometry": {"type": "Point", "coordinates": [-106.4502956, 31.7720428]}, "properties": {"name": "Project Vida - Naftzger Clinic", "phoneFormatted": "(915) 465-1191", "address": "3612 Pera Ave., El Paso, TX 79905", "city": "El Paso", "website": "https://www.pvida.net/", "zipcode": "79905", "hours": "Monday - Friday 8:00am - 5:00pm", "details": []}}, {"type": "Feature", "geometry": {"type": "Point", "coordinates": [-106.4287628, 31.867292]}, "properties": {"name": "Project Vida - North East Family Practice", "phoneFormatted": "(915) 465-1191", "address": "4875 Maxwell Ave., El Paso, TX 79904", "city": "El Paso", "website": "https://www.pvida.net/", "zipcode": "79904", "hours": "Monday - Friday 8:00am - 5:00pm", "details": []}}, {"type": "Feature", "geometry": {"type": "Point", "coordinates": [-105.3573949, 31.1681851]}, "properties": {"name": "Project Vida - Sierra Blanca Family Health Center", "phoneFormatted": "(915) 465-1191", "address": "422 Rm. 1111, Sierra Blanca, TX 79851", "city": "Sierra Blanca", "website": "https://www.pvida.net/", "zipcode": "79851", "hours": "Monday 8:00am - 12:00pm   1:00pm - 5:00pm", "details": []}}, {"type": "Feature", "geometry": {"type": "Point", "coordinates": [-101.9529058, 32.7315492]}, "properties": {"name": "South Plains Public Health District - Dawson County", "phoneFormatted": "(806) 872-5863", "address": "503 South 1st, Lamesa, TX 79331", "city": "Lamesa", "website": "https://southplainshealth.org/lamesa-clinic.php", "zipcode": "79331", "hours": "Monday - Friday 8:00am - 12:00pm   1:00pm - 5:00pm", "details": []}}, {"type": "Feature", "geometry": {"type": "Point", "coordinates": [-102.8368349, 32.9688362]}, "properties": {"name": "South Plains Public Health District - Denver City Location", "phoneFormatted": "(806) 592-2706", "address": "415 Mustang Dr., Denver City, TX 79323", "city": "Denver City", "website": "https://southplainshealth.org/denvercity-clinic.php", "zipcode": "79323", "hours": "Monday - Friday 8:00am - 12:00pm   1:00pm - 5:00pm", "details": ["Late clinic hours: second Tuesday of the month (8AM - 6PM, not closed for lunch)"]}}, {"type": "Feature", "geometry": {"type": "Point", "coordinates": [-102.6532158, 32.7203429]}, "properties": {"name": "South Plains Public Health District - Gaines County", "phoneFormatted": "(432) 758-4022", "address": "704 Hobbs Highway, Seminole, TX 79360", "city": "Seminole", "website": "https://southplainshealth.org/seminole-clinic.php", "zipcode": "79360", "hours": "8-5 Monday -Friday  closed  12-1", "details": ["Late clinic hours: first Monday of the month (8AM - 6PM, not closed for lunch) & first Tuesday of the month (7AM - 6PM, not closed for lunch)"]}}, {"type": "Feature", "geometry": {"type": "Point", "coordinates": [-102.265204, 33.1795746]}, "properties": {"name": "South Plains Public Health District - Terry County", "phoneFormatted": "(806) 637-2164", "address": "919 E. Main St., Brownfield, TX 79316", "city": "Brownfield", "website": "https://southplainshealth.org/brownfield-clinic.php", "zipcode": "79316", "hours": "Monday - Friday 8:00am - 12:00pm   1:00pm - 5:00pm", "details": []}}, {"type": "Feature", "geometry": {"type": "Point", "coordinates": [-94.7310018, 32.4969607]}, "properties": {"name": "Special Health Resources - Jim Meyer Comprehensive Health Clinic", "phoneFormatted": "(903) 212-7833", "address": "410 N. 4th St., Longview, TX 75601", "city": "Longview", "website": "https://www.specialhealth.org/jim-meyer/home/", "zipcode": "75601", "hours": "Monday - Thursday 8:00am - 5:00pm Friday 8:00am - 3:00pm", "details": []}}, {"type": "Feature", "geometry": {"type": "Point", "coordinates": [-95.517608, 33.647611]}, "properties": {"name": "Special Health Resources - Paris Care Clinic", "phoneFormatted": "(903) 609-3114", "address": "3150 Clarksville St., suite 300, Paris, TX 75460", "city": "Paris", "website": "https://www.specialhealth.org/paris-care-clinic/home/", "zipcode": "75460", "hours": "Monday - Thursday 8:00am - 5:00pm Friday 8:00am - 3:00pm", "details": []}}, {"type": "Feature", "geometry": {"type": "Point", "coordinates": [-94.0489631, 33.4295369]}, "properties": {"name": "Special Health Resources - Texarkana Care Clinic", "phoneFormatted": "(903) 792-5924", "address": "1102 Main St., Texarkana, TX 75501", "city": "Texarkana", "website": "https://www.specialhealth.org/texarkana-care-clinic-main/home", "zipcode": "75501", "hours": "Monday - Thursday 8:00am - 5:00pm Friday 8:00am - 3:00pm", "details": []}}, {"type": "Feature", "geometry": {"type": "Point", "coordinates": [-95.2769046, 31.9522954]}, "properties": {"name": "Special Health Resources - Jacksonville Care Clinic", "phoneFormatted": "(903) 541-2571", "address": "1013 College Ave., Jacksonville, TX 75766", "city": "Jacksonville", "website": "https://www.specialhealth.org/jacksonville-care-clinic/home/", "zipcode": "75766", "hours": "Monday - Thursday 8:00am - 5:00pm Friday 8:00am - 12:00pm", "details": []}}, {"type": "Feature", "geometry": {"type": "Point", "coordinates": [-95.2696885, 32.3024805]}, "properties": {"name": "Special Health Resources - Tyler Care Clinic Family Care", "phoneFormatted": "(903) 289-9259", "address": "4519 Troup HWY, Tyler, TX 75703", "city": "Tyler", "website": "https://www.specialhealth.org/tyler-care-family/home/", "zipcode": "75703", "hours": "Monday - Thursday 8:00am - 5:00pm Friday 8:00am - 3:00pm", "details": []}}, {"type": "Feature", "geometry": {"type": "Point", "coordinates": [-94.7274698, 32.4969404]}, "properties": {"name": "Special Health Resources - Women & Child Center of Longview", "phoneFormatted": "(903) 212-7158", "address": "402 N. 7th St., Longview, TX 75601", "city": "Longview", "website": "https://www.womanandchildlongview.org/", "zipcode": "75601", "hours": "Monday - Thursday 8:00am - 5:00pm Friday 8:00am - 3:00pm", "details": []}}, {"type": "Feature", "geometry": {"type": "Point", "coordinates": [-97.76205209999999, 28.3961978]}, "properties": {"name": "STFPHC Family Planning Clinic and Men's Health Center - Beeville Site", "phoneFormatted": "(361) 358-2974", "address": "1400 W. Corpus Christi St\r Ste. 4, Beeville, TX 78102", "city": "Beeville", "website": "http://www.stfphc.org/beeville.html", "zipcode": "78102", "hours": "Monday 8:00am - 7:00pm Tuesday - Wednesday 8:00am - 6:00pm Thursday 8:00am - 5:00pm Friday 9:00am - 12:00pm (offsite twice per month)", "details": []}}, {"type": "Feature", "geometry": {"type": "Point", "coordinates": [-97.39108139999999, 27.7160786]}, "properties": {"name": "STFPHC Family Planning Clinic and Men's Health Center - Corpus Christi Site", "phoneFormatted": "(361) 883-0619", "address": "4455 S. Padre Island Dr. Ste. 30, Corpus Christi, TX 78411", "city": "Corpus Christi", "website": "http://www.stfphc.org/corpus.html", "zipcode": "78411", "hours": "Monday 10:00am - 7:00pm Tuesday   Thursday 9:00am - 6:00pm Wednesday 9:00am - 12:00pm   1:00pm - 6:00pm Friday 9:00am - 1:30pm (offsite twice per month)", "details": []}}, {"type": "Feature", "geometry": {"type": "Point", "coordinates": [-97.8775811, 27.5282996]}, "properties": {"name": "STFPHC Family Planning Clinic and Men's Health Center - Kingsville Site", "phoneFormatted": "(361) 595-1929", "address": "1218 N. Armstrong St., Kingsville, TX 78363", "city": "Kingsville", "website": "http://www.stfphc.org/kingsville.html", "zipcode": "78363", "hours": "Monday - Tuesday   Thursday 9:00am - 6:00pm Wednesday 10 00am - 7:00pm Friday 9:00am - 12:00pm (offsite twice per month)", "details": []}}, {"type": "Feature", "geometry": {"type": "Point", "coordinates": [-97.6806266, 27.7867118]}, "properties": {"name": "STFPHC Family Planning Clinic and Men's Health Center - Robstown Site", "phoneFormatted": "(361) 387-6996", "address": "515 Pat Shutter\r Unit 121, Robstown, TX 78380", "city": "Robstown", "website": "http://www.stfphc.org/robstown.html", "zipcode": "78380", "hours": "Monday   Thursday 9:00am - 6:00pm Friday 9:00am - 12:00pm (offsite twice per month)", "details": []}}, {"type": "Feature", "geometry": {"type": "Point", "coordinates": [-97.0420931, 28.0566934]}, "properties": {"name": "STFPHC Family Planning Clinic and Men's Health Center - Rockport Site", "phoneFormatted": "(361) 729-7512", "address": "2871 Hwy 35 N, Rockport, TX 78382", "city": "Rockport", "website": "http://www.stfphc.org/rockport.html", "zipcode": "78382", "hours": "Monday 8:30am - 5:30pm Tuesday - Thursday 8:30am - 1:00pm   1:30pm - 6:30pm Friday 9:00am - 12:00pm (offsite twice per month)", "details": []}}, {"type": "Feature", "geometry": {"type": "Point", "coordinates": [-97.5157043, 28.0343093]}, "properties": {"name": "STFPHC Family Planning Clinic and Men's Health Center - Sinton Site", "phoneFormatted": "(361) 364-3306", "address": "301 S. San Patricio St.\r Ste C, Sinton, TX 78387", "city": "Sinton", "website": "http://www.stfphc.org/sinton.html", "zipcode": "78387", "hours": "Monday 8:00am - 12:00pm   1:00pm - 7:00pm Tuesday - Thursday 9:00am - 6:00pm Friday 9:00am - 12:00pm (offsite twice per month)", "details": []}}, {"type": "Feature", "geometry": {"type": "Point", "coordinates": [-97.39125059999999, 27.7156111]}, "properties": {"name": "STFPHC Natural Family Planning & Fertility Center - Corpus Christi S. Padre Site", "phoneFormatted": "(361) 852-0222", "address": "4455 S. Padre Island Dr. Ste. 28, Corpus Christi, TX 78411", "city": "Corpus Christi", "website": "http://www.stfphc.org/natural_fam_planning.html", "zipcode": "78411", "hours": "Monday 10:00am - 5:00pm Tuesday - Friday by appointment only", "details": []}}, {"type": "Feature", "geometry": {"type": "Point", "coordinates": [-97.4116543, 27.7962102]}, "properties": {"name": "STFPHC Natural Family Planning & Fertility Center - Gabbard Memorial", "phoneFormatted": "(361) 887-0151", "address": "1919 Leopard St., Corpus Christi, TX 78408", "city": "Corpus Christi", "website": "http://www.stfphc.org/natural_fam_planning.html", "zipcode": "78408", "hours": "Wednesday 9:00am - 12:00pm   1:00pm - 5:00pm Thursday 4:00pm - 7:00pm", "details": []}}, {"type": "Feature", "geometry": {"type": "Point", "coordinates": [-99.4818117, 27.5559277]}, "properties": {"name": "STFPHC Natural Family Planning & Fertility Center - Laredo Site", "phoneFormatted": "(956) 722-7017", "address": "1407 Calle Del Norte\r #108, Laredo, TX 78041", "city": "Laredo", "website": "http://www.stfphc.org/natural_fam_planning.html", "zipcode": "78041", "hours": "Wednesday 9:00am - 1:00pm   Monday - Tuesday   Thursday - Friday by appointment only", "details": []}}, {"type": "Feature", "geometry": {"type": "Point", "coordinates": [-97.9948551, 26.1553225]}, "properties": {"name": "STFPHC Natural Family Planning & Fertility Center - Weslaco Site", "phoneFormatted": "(956) 969-3079", "address": "511 W. 6th St., Weslaco, TX 78596", "city": "Weslaco", "website": "http://www.stfphc.org/natural_fam_planning.html", "zipcode": "78596", "hours": "By appointment only", "details": []}}, {"type": "Feature", "geometry": {"type": "Point", "coordinates": [-100.4095882, 32.4787289]}, "properties": {"name": "Sweetwater-Nolan County Family Planning Clinic", "phoneFormatted": "(325) 235-2869", "address": "301 E. 12th St, Sweetwater, TX 79556", "city": "Sweetwater", "website": "https://nolancountyhealth.com/family-planning", "zipcode": "79556", "hours": "Monday - Friday 8:30am - 4:30pm", "details": []}}, {"type": "Feature", "geometry": {"type": "Point", "coordinates": [-94.05265969999999, 33.4294187]}, "properties": {"name": "Texarkana-Bowie County Family Health Center", "phoneFormatted": "(903) 798-3250", "address": "902 W. 12th St, Texarkana, TX 75501", "city": "Texarkana", "website": "http://ci.texarkana.tx.us/423/Reproductive-Health-Program", "zipcode": "75501", "hours": "Tuesday - Thursday 7:00am - 12:00pm   1:00pm - 6:00pm", "details": []}}, {"type": "Feature", "geometry": {"type": "Point", "coordinates": [-102.3761807, 31.8441603]}, "properties": {"name": "Texas Tech University Health Center- Odessa Clinic", "phoneFormatted": "(432) 703-5510", "address": "701 W. 5th St, Odessa, TX 79763", "city": "Odessa", "website": "https://www.texastechphysicians.com/permian/", "zipcode": "79763", "hours": "Monday - Friday 8:00am - 5:00pm", "details": []}}, {"type": "Feature", "geometry": {"type": "Point", "coordinates": [-102.0832543, 31.9916009]}, "properties": {"name": "Texas Tech University- Midland Clinic", "phoneFormatted": "(432) 620-5800", "address": "301 North Ave. N, Midland, TX 79701", "city": "Midland", "website": "https://www.texastechphysicians.com/permian/", "zipcode": "79701", "hours": "Monday - Friday 8:00am - 5:00pm", "details": []}}, {"type": "Feature", "geometry": {"type": "Point", "coordinates": [-95.8537157, 32.2180689]}, "properties": {"name": "Tyler Family Circle of Care - Athens", "phoneFormatted": "(903) 904-5084", "address": "1001 North Palestine St., Athens, TX 75751", "city": "Athens", "website": "https://www.tylercircleofcare.org/contact/", "zipcode": "75751", "hours": "Monday - Friday 8:00am - 6:00pm", "details": []}}, {"type": "Feature", "geometry": {"type": "Point", "coordinates": [-95.303055, 32.3790515]}, "properties": {"name": "Tyler Family Circle of Care - Broadway", "phoneFormatted": "(903) 535-9041", "address": "2990 N. Broadway Ave., Tyler, TX 75702", "city": "Tyler", "website": "https://www.tylercircleofcare.org/contact/", "zipcode": "75702", "hours": "Monday - Friday 8:00am - 6:00pm", "details": []}}, {"type": "Feature", "geometry": {"type": "Point", "coordinates": [-95.3201715, 32.3605173]}, "properties": {"name": "Tyler Family Circle of Care  - Glenwood", "phoneFormatted": "(903) 535-9041", "address": "928 N Glenwood, Tyler, TX 75702", "city": "Tyler", "website": "https://www.tylercircleofcare.org/contact/", "zipcode": "75702", "hours": "Monday - Friday 8:00am - 6:00pm", "details": []}}, {"type": "Feature", "geometry": {"type": "Point", "coordinates": [-95.2988567, 32.3439848]}, "properties": {"name": "Tyler Family Circle of Care - Houston", "phoneFormatted": "(903) 535-9041", "address": "214 E. Houston St., Tyler, TX 75702", "city": "Tyler", "website": "https://www.tylercircleofcare.org/contact/", "zipcode": "75702", "hours": "Monday - Friday 8:00am - 6:00pm", "details": []}}, {"type": "Feature", "geometry": {"type": "Point", "coordinates": [-95.26968869999999, 31.9653771]}, "properties": {"name": "Tyler Family Circle of Care - Jacksonville", "phoneFormatted": "(903) 541-2700", "address": "510 E. Commerce St., Jacksonville, TX 75766", "city": "Jacksonville", "website": "https://www.tylercircleofcare.org/contact/", "zipcode": "75766", "hours": "Monday - Friday 8:00am - 6:00pm", "details": []}}, {"type": "Feature", "geometry": {"type": "Point", "coordinates": [-98.6359763, 26.3428875]}, "properties": {"name": "UTRGV - Primary Care at La Victoria", "phoneFormatted": "(956) 296-1711", "address": "532 Gabriela St., Rio Grande City, TX 78582", "city": "Rio Grande City", "website": "https://uthealthrgv.org/locations/", "zipcode": "78582", "hours": "Monday - Friday 8:00 am - 5:00 pm", "details": ["Call 1-833-UTRGVMD for all locations"]}}, {"type": "Feature", "geometry": {"type": "Point", "coordinates": [-98.0685135, 26.2961302]}, "properties": {"name": "UTRGV - Primary Care at San Carlos", "phoneFormatted": "(956) 348-9357", "address": "230 N. 86th St., Edinburg, TX 78542", "city": "Edinburg", "website": "https://uthealthrgv.org/locations/", "zipcode": "78542", "hours": "Monday - Friday 8:00am - 5:00pm", "details": ["Call 1-833-UTRGVMD for all locations"]}}, {"type": "Feature", "geometry": {"type": "Point", "coordinates": [-97.4996862, 25.9040277]}, "properties": {"name": "Valley AIDS Council - Brownsville", "phoneFormatted": "(956) 541-2600", "address": "857 E. Washington St., Suite G, Brownsville, TX 78520", "city": "Brownsville", "website": "https://www.valleyaids.org", "zipcode": "78520", "hours": "Monday - Friday 9:00am - 6:00pm", "details": []}}, {"type": "Feature", "geometry": {"type": "Point", "coordinates": [-97.6719792, 26.1687555]}, "properties": {"name": "Valley AIDS Council - Harlingen", "phoneFormatted": "(956) 428-2653", "address": "2306 Camelot Plaza Circle, Harlingen, TX 78550", "city": "Harlingen", "website": "https://www.valleyaids.org", "zipcode": "78550", "hours": "Monday - Friday 8:00am - 5:00pm", "details": []}}, {"type": "Feature", "geometry": {"type": "Point", "coordinates": [-98.2222863, 26.2001034]}, "properties": {"name": "Valley AIDS Council - McAllen", "phoneFormatted": "(956) 668-1155", "address": "300 South 2nd St. #101, McAllen, TX 78501", "city": "McAllen", "website": "https://www.valleyaids.org", "zipcode": "78501", "hours": "Monday - Friday 8:00am - 5:00pm", "details": []}}, {"type": "Feature", "geometry": {"type": "Point", "coordinates": [-94.72460009999999, 32.5038849]}, "properties": {"name": "Wellness Pointe - Clinic - Bldg. 1", "phoneFormatted": "(903) 758-2610", "address": "1107 E. Marshall Ave. Bldg. 1, Longview, TX 75601", "city": "Longview", "website": "https://wellnesspointe.org/locations/", "zipcode": "75601", "hours": "Monday - Wednesday   Friday 8:00am - 5:00pm  Thursday 8:00am - 6:00pm", "details": []}}, {"type": "Feature", "geometry": {"type": "Point", "coordinates": [-94.72460009999999, 32.5038849]}, "properties": {"name": "Wellness Pointe - Clinic - Bldg. 3", "phoneFormatted": "(903) 758-2610", "address": "1107 E. Marshall Ave. Bldg. 3, Longview, TX 75601-5602", "city": "Longview", "website": "https://wellnesspointe.org/locations/", "zipcode": "75601", "hours": "Monday - Wednesday   Friday 8:00am - 5:00pm  Thursday 8:00am - 6:00pm", "details": []}}, {"type": "Feature", "geometry": {"type": "Point", "coordinates": [-94.94496459999999, 32.7343677]}, "properties": {"name": "Wellness Pointe - Gilmer Clinic", "phoneFormatted": "(903) 758-2610", "address": "602 Titus Street, Suite 130, Gilmer, TX 75644", "city": "Gilmer", "website": "https://wellnesspointe.org/locations/", "zipcode": "75644", "hours": "Monday - Wednesday   Friday 8:00am - 5:00pm Thursday 10:00am - 7:00pm", "details": []}}, {"type": "Feature", "geometry": {"type": "Point", "coordinates": [-94.87017510000001, 32.373062]}, "properties": {"name": "Wellness Pointe - Kilgore Clinic", "phoneFormatted": "(903) 758-2610", "address": "1711 S. Henderson Blvd, Suite 400, Kilgore, TX 75662", "city": "Kilgore", "website": "https://wellnesspointe.org/locations/", "zipcode": "75662", "hours": "Monday - Wednesday   Friday 8:00am - 5:00pm Thursday 10:00am - 7:00pm", "details": []}}, {"type": "Feature", "geometry": {"type": "Point", "coordinates": [-94.781902, 32.5260255]}, "properties": {"name": "Wellness Pointe - North Clinic", "phoneFormatted": "(903) 758-2610", "address": "1761 West Loop 281, Longview, TX 75604", "city": "Longview", "website": "https://wellnesspointe.org/locations/", "zipcode": "75604", "hours": "Monday  Wednesday  and Friday 8:00am - 5:00pm Tuesday   Thursday 8:00am - 6:00pm", "details": []}}, {"type": "Feature", "geometry": {"type": "Point", "coordinates": [-94.7311283, 32.4673298]}, "properties": {"name": "Wellness Pointe - South Longview", "phoneFormatted": "(903) 758-2610", "address": "2131 S. Mobberly Ave, Longview, TX 75602", "city": "Longview", "website": "https://wellnesspointe.org/locations/", "zipcode": "75602", "hours": "Monday - Friday 8:00am - 5:00pm", "details": []}}, {"type": "Feature", "geometry": {"type": "Point", "coordinates": [-97.42145529999999, 27.7482469]}, "properties": {"name": "Women's and Men's Health of the Coastal Bend - Dillon Clinic", "phoneFormatted": "(361) 857-0101", "address": "4410 Dillon Lane #1, Corpus Christi, TX 78415", "city": "Corpus Christi", "website": "https://www.wamhs.org/locations/", "zipcode": "78415", "hours": "Monday  Wednesday    Friday 8:00am - 5:00pm Tuesday   Thursday 8:00am - 7:00pm Saturday 9:00am - 1:00pm", "details": []}}, {"type": "Feature", "geometry": {"type": "Point", "coordinates": [-97.4118802, 27.716216]}, "properties": {"name": "Women's and Men's Health of the Coastal Bend - Holly Clinic", "phoneFormatted": "(361) 855-9107", "address": "3536 Holly Rd., Corpus Christi, TX 78415", "city": "Corpus Christi", "website": "https://www.wamhs.org/locations/", "zipcode": "78415", "hours": "Monday - Wednesday   Friday 8:00am - 5:00pm Thursday 8:00am - 7:00pm", "details": []}}, {"type": "Feature", "geometry": {"type": "Point", "coordinates": [-97.85536809999999, 27.5074339]}, "properties": {"name": "Women's and Men's Health of the Coastal Bend - Kingsville Clinic", "phoneFormatted": "(361) 595-1875", "address": "1022B South 14th St., Kingsville, TX 78363", "city": "Kingsville", "website": "https://www.wamhs.org/locations/", "zipcode": "78363", "hours": "Monday - Wednesday   Friday 8:30am - 5:00pm Thursday 8:30am - 7:00pm", "details": []}}, {"type": "Feature", "geometry": {"type": "Point", "coordinates": [-96.5972139, 32.8478885]}, "properties": {"name": "Women's Health Care Center - Broadway-Garland Clinic", "phoneFormatted": "(214) 703-6527", "address": "5505 Broadway Blvd. #B, Garland, TX 75043", "city": "Garland", "website": "https://www.womenshealthcarecenter.org", "zipcode": "75043", "hours": "Monday - Thursday 9:00am - 5:00pm Friday 9:00am - 12:00pm 1st Saturday of every month 9:00am - 12:00pm", "details": []}}, {"type": "Feature", "geometry": {"type": "Point", "coordinates": [-96.2844866, 32.7368983]}, "properties": {"name": "Women's Health Care Center - Moore Clinic", "phoneFormatted": "(214) 703-6527", "address": "617 West Moore Ave., Terrell, TX 75160", "city": "Terrell", "website": "https://www.womenshealthcarecenter.org", "zipcode": "75160", "hours": "Tuesday   Thursday 9:00am - 5:00pm", "details": []}}, {"type": "Feature", "geometry": {"type": "Point", "coordinates": [-96.682165, 32.7614843]}, "properties": {"name": "Women's Health Care Center - South Buckner Clinic", "phoneFormatted": "(214) 703-6527", "address": "2914 S. Buckner Blvd., Dallas, TX 75227", "city": "Dallas", "website": "https://www.womenshealthcarecenter.org", "zipcode": "75227", "hours": "M-Th 9am-5pm Fri 9am-12pm", "details": []}}, {"type": "Feature", "geometry": {"type": "Point", "coordinates": [-96.589854, 33.6634696]}, "properties": {"name": "Your Health Clinic - Callie Clinic", "phoneFormatted": "(903) 891-1972", "address": "1521 Baker Dr.., Sherman, TX 75090", "city": "Sherman", "website": "https://www.callieclinic.org", "zipcode": "75090", "hours": "Monday - Thursday 8:00am - 12:00pm   12:30pm - 5:30pm Friday 8:00am - 12:00pm", "details": []}}, {"type": "Feature", "geometry": {"type": "Point", "coordinates": [-98.1916119, 26.268856]}, "properties": {"name": "UTRGV at Edinburg", "phoneFormatted": "(956) 296-3021", "address": "3804 South Jackson Road, Edinburg, TX 78539", "city": "Edinburg", "website": "https://uthealthrgv.org/locations/", "zipcode": "78539", "hours": "Monday - Friday 8:00am - 9:00pm Saturday 8:00am - 12:00pm", "details": ["Call 1-833-UTRGVMD for all locations"]}}, {"type": "Feature", "geometry": {"type": "Point", "coordinates": [-97.390241, 25.8963204]}, "properties": {"name": "UTRGV AHEC (Bob Clark)", "phoneFormatted": "(956) 296-1680", "address": "9901 California Road, Brownsville, TX 78521", "city": "Brownsville", "website": "https://uthealthrgv.org/locations/", "zipcode": "78521", "hours": "Monday - Friday 8:00am - 5:00pm", "details": ["Call 1-833-UTRGVMD for all locations"]}}, {"type": "Feature", "geometry": {"type": "Point", "coordinates": [-97.9883232, 29.8121097]}, "properties": {"name": "MLK Community Health Services", "phoneFormatted": "(512) 392-5816", "address": "611 W. M. L. K. St. San Marcos, TX 78666", "city": "San Marcos", "website": "https://www.communityaction.com/familyplanning", "zipcode": "78666", "hours": "Monday - Thursday 8:00am - 5:00pm (closed for lunch 12:00pm - 1:00pm)", "details": ["Telephone is answered Friday 8:00am - 12:00pm"]}}, {"type": "Feature", "geometry": {"type": "Point", "coordinates": [-95.50412449999999, 29.8470182]}, "properties": {"name": "Planned Parenthood - Northwest Health Center", "phoneFormatted": "(713) 514-1107", "address": "13169 Northwest Fwy Suite 115, Houston, TX 77040", "city": "Houston", "website": "https://www.plannedparenthood.org/health-center/texas/houston/77040/northwest-health-center-4042-91650/emergency-contraception", "zipcode": "77040", "hours": "Monday, Tuesday, Wednesday 8:30am - 4:30pm Thursday 10:30am - 7:00pm Friday 9:30am - 4:30 pm", "details": ["EC available on walk-in basis", "Contact center for EC services pricing information", "Online Booking"]}}]}